{
    "type": "FeatureCollection",
    "features": [
      {
        "type": "Feature",
        "properties": {
          "name": "Anju's Chatamari",
          "directions": "In a warren of alleys in Dilli Bazaar",
          "cuisine": "Newar",
          "specialties": ["Chatamari"],
          "comment": "Chatamari so crispy it's almost like Dosa. Other Newar food is fantastic" },
        "geometry": {
          "type": "Point",
          "coordinates": [85.33018, 27.70305]
        }
      },
      {
        "type": "Feature",
        "properties": {
          "name": "Duck Choila",
          "directions": "A series of 3 duck choila restaurants. Recognizable by the ducks on the signs outside",
          "cuisine": "Nepali",
          "specialties": ["Duck Choila"],
          "comment": "Quack Quack" },
        "geometry": {
          "type": "Point",
          "coordinates": [85.308168, 27.675661]
        }
      },
      {
        "type": "Feature",
        "properties": {
          "name": "Thakali Daal Bhat",
          "directions": "Across the road from the airport cargo bay and down the hill, marked by a black sign in Devanagiri script",
          "cuisine": "Nepali / Thakali",
          "specialties": ["Daal bhat"],
          "comment": "Best Daal Bhat in town. Come before 1 PM while it's fresh." },
        "geometry": {
          "type": "Point",
          "coordinates": [85.35195, 27.69061]
        }
      },
      {
        "type": "Feature",
        "properties": {
          "name": "Bhatti",
          "directions": "Unmarked joint down an alley by the Patan Kumari palace, look for a green curtain on your left when heading South.",
          "cuisine": "Newar",
          "specialties": ["Anda Chiura", "Chyang", "Raxi"],
          "comment": "Real hole in the wall with cheap chyang and cheerful owners. Chyang served in teapots." },
        "geometry": {
          "type": "Point",
          "coordinates": [85.32154,27.67349] }
      },
      {
        "type": "Feature",
        "properties": {
          "name": "Tibetan Momos",
          "directions": "Down an alley across from the barbershop next to the big Ekantakuna tree. Go all the way to the back of the alley and you'll be facing the restaurant.",
          "cuisine": "Tibetan",
          "specialties": ["Buff Momos"],
          "comment": "Some of the best buff momos in the city." },
        "geometry": {
          "type": "Point",
          "coordinates": [85.31005,27.67033] }
      },
      {
        "type": "Feature",
        "properties": {
          "name": "Raxi and Bara Spot",
          "directions": "Signage out front all in Devanagiri",
          "cuisine": "Newar",
          "specialties": ["Raxi", "Bara"],
          "comment": "Meat dishes are top notch" },
        "geometry": {
          "type": "Point",
          "coordinates": [85.32401, 27.66011] 
        }
      }
    ]
}
